Sitename,Address,Borough,Zip,Latitude,Longitude,Category
Center for Nursing & Rehabilitation,"520 Prospect Pl, Brooklyn, NY 11238",Brooklyn,11238,40.675125,-73.959525,Pharmaceuticals & Syringes
Calvary Hospital Inc.,"1740 Eastchester Rd, Bronx, NY 10461",Bronx,10461,40.848179,-73.84401,Pharmaceuticals & Syringes
Bedford Center for Nursing and Rehabilitation,"40 Heyward St Brooklyn, NY 11249",Brooklyn,11249,40.700186,-73.958208,Pharmaceuticals & Syringes
Hollis Park Manor Nursing Home,"19106 Hillside Ave, Hollis, NY 11423",Queens,11423,40.715906,-73.770689,Pharmaceuticals & Syringes
Medicine Center Rx LLC,"92 E 167th Street,  Bronx,  NY 10452",Bronx,10452,40.834944,-73.9199,Pharmaceuticals & Syringes
VLV Med Pharmacy Inc,"4085 Broadway,  Manhattan,  NY 10032",Manhattan,10032,40.844324,-73.9394,Pharmaceuticals & Syringes
CVS Pharmacy,"219-39 89th Ave,  Queens,  NY 11427",Queens,11427,40.729579,-73.7434,Pharmaceuticals & Syringes
CFH Wards Island Medical Clinic,"1 Wards Island, New York, NY 10035",Manhattan,10035,40.802501,-73.930881,Pharmaceuticals & Syringes
St. Marys Hospital For Children,"29-01 216th St, Bayside, NY 11360",Queens,11360,40.776586,-73.768889,Pharmaceuticals & Syringes
Bensonhurst Center for Rehabilitation and Healthcare,"1740 84 St Brooklyn, NY 11214",Brooklyn,11214,40.609055,-74.002632,Pharmaceuticals & Syringes
Regal Heights Rehabilitation and Healthcare Center,"70-5 35th Ave Jackson Heights, NY 11372",Queens,11372,40.750844,-73.895165,Pharmaceuticals & Syringes
La Guardia Pharmacy,"101-22 Astoria Boulevard,  Queens,  NY 11369",Queens,11369,40.761389,-73.8675,Pharmaceuticals & Syringes
Duane Reade,"1 Union Square South,  Manhattan,  NY 10003",Manhattan,10003,40.734149,-73.9904,Pharmaceuticals & Syringes
Medicine Shoppe Pharmacy,"1109 Coney Island Ave,  Brooklyn,  NY 11230",Brooklyn,11230,40.63059,-73.9659,Pharmaceuticals & Syringes
Safe Horizon Streetwork Project Lower East Side,"33 Essex St, New York, NY 10002",Manhattan,10002,40.716063,-73.989812,Pharmaceuticals & Syringes
AIDS Center of Queens County,"11-39 Foam Place, Far Rockaway, NY 11691",Queens,11691,40.604768,-73.751438,Pharmaceuticals & Syringes
CVS Pharmacy,"7960 Metropolitan Ave,  Queens,  NY 11379",Queens,11379,40.713265,-73.8723,Pharmaceuticals & Syringes
Walgreens/Duane Reade,"777 Avenue of the Americas,  Manhattan,  NY 10001",Manhattan,10001,40.745257,-73.9915,Pharmaceuticals & Syringes
NYPD 120th Precinct,"78 Richmond Terrace,  Staten Island,  NY 10301",Staten Island,10301,40.644718,-74.0775,Pharmaceuticals & Syringes
Positive Health Project,"301 W 37 St, New York, NY 10018",Manhattan,10018,40.754304,-73.992337,Pharmaceuticals & Syringes
Bronx Park Rehabilitation & Nursing Center,"3845 Carpenter Ave, Bronx, NY 10467",Bronx,10467,40.885872,-73.86525,Pharmaceuticals & Syringes
New York City AIDS Housing Network,"80 4th Ave Brooklyn, NY 11217",Brooklyn,11217,40.682223,-73.980193,Pharmaceuticals & Syringes
Brookdale Hospital Medical Center,"1 Brookdale Plz, Brooklyn, NY 11212",Brooklyn,11212,40.655255,-73.912511,Pharmaceuticals & Syringes
Sheepshead Nursing & Rehabilitation Center,"2840 Knapp St, Brooklyn, NY 11235",Brooklyn,11235,40.585299,-73.931843,Pharmaceuticals & Syringes
Project Hospitality - Multi-Service Center,"514 Bay St, Staten Island, NY, 10304",Staten Island,10304,40.629414,-74.076904,Pharmaceuticals & Syringes
"Jewish Home Lifecare, Harry and Jeanette Weinber Campus","100 W Kingsbridge Rd, Bronx, NY 10468",Bronx,10468,40.868039,-73.902224,Pharmaceuticals & Syringes
Northern Manhattan Nursing Home Inc,"116 E 125th St New York, NY 10035",Manhattan,10035,40.804559,-73.938268,Pharmaceuticals & Syringes
Sure Drugs,"312 Ralph Ave,  Brooklyn,  NY 11233",Brooklyn,11233,40.678495,-73.9218,Pharmaceuticals & Syringes
Greenfield Pharmacy,"1526 Cortelyou Rd,  Brooklyn,  NY 11226",Brooklyn,11226,40.641277,-73.9636,Pharmaceuticals & Syringes
Community Care Pharmacy,"2913 Surf Avenue,  Brooklyn,  NY 11224",Brooklyn,11224,40.573193,-73.9954,Pharmaceuticals & Syringes
Manhattanville Health Care Center,"311 W 231 St, Bronx, NY 10463",Bronx,10463,40.881216,-73.90868,Pharmaceuticals & Syringes
Harlem United Community AIDS Services,"290 Lenox Ave New York, NY 10027",Manhattan,10027,40.807393,-73.945298,Pharmaceuticals & Syringes
Duane Reade,"1498 York Ave,  Manhattan,  NY 10075",Manhattan,10075,40.771572,-73.9499,Pharmaceuticals & Syringes
Planned Parenthood of NYC Project St Beat Mobile Van - Central Office,"349 E 149 St, Bronx, NY 10451",Bronx,10451,40.816861,-73.91971,Pharmaceuticals & Syringes
New York Presbyterian Hospital New York Weill Cornell Center,"515 E 70 St, New York, NY 10021",Manhattan,10021,40.765277,-73.953631,Pharmaceuticals & Syringes
Community Health Action of Staten Island - Wellness Center,"380 Van Duzer St, Staten Island, NY, 10304",Staten Island,10304,40.628869,-74.079944,Pharmaceuticals & Syringes
Fairview Nursing Care Center,"69-70 Grand Central Pkwy, Forest Hills, NY 11375",Queens,11375,40.724669,-73.838275,Pharmaceuticals & Syringes
Brookhaven Rehabilitation & Healthcare Center,"250 Beach 17 St Far Rockaway, NY 11691",Queens,11691,40.596438,-73.750681,Pharmaceuticals & Syringes
"Sea View Hospital, Rehabilitation Center and Home","460 Brielle Ave, Staten Island, NY, 10314",Staten Island,10314,40.592102,-74.130981,Pharmaceuticals & Syringes
Dr. Susan Smith Mckinny Nursing and Rehabilitation Center,"594 Albany Ave, Brooklyn, NY 11203",Brooklyn,11203,40.659711,-73.940204,Pharmaceuticals & Syringes
Community Health Action of Staten Island,"56 Bay St, Staten Island, NY 10301",Staten Island,10301,40.640694,-74.076035,Pharmaceuticals & Syringes
Amesterdam Nursing Home Corp,"1060 Amsterdam Ave, New York, NY 10025",Manhattan,10025,40.804668,-73.963281,Pharmaceuticals & Syringes
VIP Community Services - Prevention Center,"591 E Tremont Ave, Bronx, NY 10457",Bronx,10457,40.846733,-73.89357,Pharmaceuticals & Syringes
The Pavilion at Queens for Rehabilitation & Nursing,"36-17 Parsons Blvd, Flushing, NY 11354",Queens,11354,40.764207,-73.823061,Pharmaceuticals & Syringes
Katz Drugs,"76 Graham Ave,  Brooklyn,  NY 11206",Brooklyn,11206,40.703608,-73.9423,Pharmaceuticals & Syringes
Walgreens,"5564 Broadway,  Bronx,  NY 10463",Bronx,10463,40.8782,-73.9044,Pharmaceuticals & Syringes
Schulman and Schachna Institute for Nursing and Rehabilitation,"555 Rockaway Pkwy Brooklyn, NY 11212",Brooklyn,11212,40.655575,-73.913361,Pharmaceuticals & Syringes
Bayside Pharmacy Inc,"221-36 Horace Harding Expressway,  Queens,  NY 11364",Queens,11364,40.749022,-73.7554,Pharmaceuticals & Syringes
Duane Reade,"296 Flatbush Ave,  Brooklyn,  NY 11217",Brooklyn,11217,40.678101,-73.9735,Pharmaceuticals & Syringes
Bay Park Center for Nursing and Rehabilitation,"801 Co-op City Blvd, Bronx, NY, 10475",Bronx,10475,40.879676,-73.829187,Pharmaceuticals & Syringes
NYPD 62nd Precinct,"1925 Bath Ave,  Brooklyn,  NY 11214",Brooklyn,11214,40.60259,-74.0031,Pharmaceuticals & Syringes
Jeanne Jugan Residence,"2999 Schurz Ave, Bronx, NY 10465",Bronx,10465,40.815298,-73.812744,Pharmaceuticals & Syringes
Walgreens/Duane Reade,"1657 Broadway,  Manhattan,  NY 10019",Manhattan,10019,40.762518,-73.9837,Pharmaceuticals & Syringes
New York Presbyterian Hospital Columbia Presbyterian Center,"622 W 168th St New York, NY 10032",Manhattan,10032,40.841041,-73.941319,Pharmaceuticals & Syringes
My Hope Pharmacy LLC,"14114 Northern Boulevard,  Queens,  NY 11354",Queens,11354,40.764143,-73.8251,Pharmaceuticals & Syringes
Maimonides Medical Center,"4802 10 Ave, Brooklyn, NY 11219",Brooklyn,11219,40.639716,-73.999084,Pharmaceuticals & Syringes
Menorah Home & Hospital For Aged & Infirm,"1516 Oriental Blvd, Brooklyn, NY 11235",Brooklyn,11235,40.5766971,-73.937898,Pharmaceuticals & Syringes
Heritage Pharmacy,"233 East Tremont Ave,  Bronx,  NY 10457",Bronx,10457,40.848977,-73.9047,Pharmaceuticals & Syringes
NYPD 123rd Precinct,"116 Main Street,  Staten Island,  NY 10307",Staten Island,10307,40.511796,-74.25,Pharmaceuticals & Syringes
BJ's Pharmacy,"80 East 116th Street,  Manhattan,  NY 10029",Manhattan,10029,40.80005077,-73.94389125,Pharmaceuticals & Syringes
AIDS Center of Queens County,"161-21 Jamaica Ave, Jamaica, NY 11432",Queens,11432,40.704394,-73.797905,Pharmaceuticals & Syringes
"Queens Central Pharmacy, Inc","116-08 Queens Boulevard,  Queens,  NY 11375",Queens,11375,40.715472,-73.8335,Pharmaceuticals & Syringes
Manor Haven Health Care Center,"1441 Gateway Blvd, Far Rockaway, NY 11691",Queens,11691,40.600666,-73.749779,Pharmaceuticals & Syringes
CFH Susan's Place Medical Clinic,"1912 Jerome Ave, Bronx, NY 10453",Bronx,10453,40.850512,-73.9101,Pharmaceuticals & Syringes
CVS Pharmacy,"31-01 Ditmars Boulevard,  Queens,  NY 11105",Queens,11105,40.776288,-73.9101,Pharmaceuticals & Syringes
Kings Harbor Multicare Center,"2000 E Gun Hill Rd, Bronx, NY 10469",Bronx,10469,40.860302,-73.829885,Pharmaceuticals & Syringes
Duane Reade,"136-02 Roosevelt Ave,  Queens,  NY 11354",Queens,11354,40.759402,-73.8297,Pharmaceuticals & Syringes
NYPD 72nd Precinct,"830 4th Ave,  Brooklyn,  NY 11232",Brooklyn,11232,40.658186,-74.001,Pharmaceuticals & Syringes
CFH Saint John's Medical Clinic,"795 Lexington Ave, Brooklyn, NY 11221",Brooklyn,11221,40.690319,-73.92892,Pharmaceuticals & Syringes
Ozanam Hall of Queens Nursing Home,"42-41 201st St, Bayside, NY 11361",Queens,11361,40.758658,-73.782468,Pharmaceuticals & Syringes
CFH Bushwick Medical Clinic,"1675 Broadway, Brooklyn, NY 11207",Brooklyn,11207,40.684433,-73.91243,Pharmaceuticals & Syringes
Queens Boulevard Extended Care Facility,"61-11 Queens Blvd, Woodside, NY 11377",Queens,11377,40.741631,-73.903036,Pharmaceuticals & Syringes
Modern Pharmacy,"95-02 Van Wyck Expressway,  Queens,  NY 11419",Queens,11419,40.696061,-73.8136,Pharmaceuticals & Syringes
Alliance for Positive Change - Midtown Central location,"64 W 35th St 3rd Fl, New York, NY 10001",Manhattan,10001,40.75009,-73.986665,Pharmaceuticals & Syringes
CVS Pharmacy,"630 Lexington Ave,  Manhattan,  NY 10002",Manhattan,10002,40.759005,-73.9715,Pharmaceuticals & Syringes
Flatbush Rx Pharmacy,"1855 Flatbush Ave,  Brooklyn,  NY 11210",Brooklyn,11210,40.62177114,-73.96497705,Pharmaceuticals & Syringes
"Providence Rest, Inc","3304 Waterbury Ave, Bronx, NY 10465",Bronx,10465,40.834988,-73.817602,Pharmaceuticals & Syringes
CVS Pharmacy,"1361 Hylan Boulevard,  Staten Island,  NY 10305",Staten Island,10305,40.595467,-74.0865,Pharmaceuticals & Syringes
13th Ave Pharmacy,"5211 13th Ave,  Brooklyn,  NY 11219",Brooklyn,11219,40.632953,-73.9939,Pharmaceuticals & Syringes
Ballard Pharmacy,"226 Prospect Park West,  Brooklyn,  NY 11215",Brooklyn,11215,40.659998,-73.981,Pharmaceuticals & Syringes
S&M Pharmacy,"6850 Main Street,  Queens,  NY 11367",Queens,11367,40.732373,-73.8253,Pharmaceuticals & Syringes
New East Side Nursing Home,"25 Willett St, New York, NY 10002",Manhattan,10002,40.71707239,-73.98262391,Pharmaceuticals & Syringes
Ami Pharmacy DBA St. Jesus Pharmacy,"4180 Broadway,  Manhattan,  NY 10033",Manhattan,10033,40.847781,-73.9376,Pharmaceuticals & Syringes
Workmens Circle Multicare Center,"3155 Grace Ave, Bronx, NY, 10469",Bronx,10469,40.874247,-73.837423,Pharmaceuticals & Syringes
Midway Nursing Home,"6995 Queens Midtown Expy Maspeth, NY 11378",Queens,11378,40.726424,-73.890761,Pharmaceuticals & Syringes
"New London Pharmacy, Inc","246 8th Ave,  Manhattan,  NY 10011",Manhattan,10011,40.744868,-73.9984,Pharmaceuticals & Syringes
Parker Jewish Intitute For Healthcare and Rehab,"271-11 76th Ave, Glen Oaks, NY 11004",Queens,11004,40.755618,-73.707472,Pharmaceuticals & Syringes
Walgreens,"1551 Richmond Ave,  Staten Island,  NY 10314",Staten Island,10314,40.610328,-74.1602,Pharmaceuticals & Syringes
Comfort Drugs,"13523 Roosevelt Ave,  Queens,  NY 11354",Queens,11354,40.759448,-73.8311,Pharmaceuticals & Syringes
Hillside Manor Rehab & Extended Care Center,"182-15 Hillside Ave, Queens, NY 11432",Queens,11432,40.713859,-73.780149,Pharmaceuticals & Syringes
CVS Pharmacy,"3775 E. Tremont Ave,  Bronx,  NY 10465",Bronx,10465,40.825717,-73.8205,Pharmaceuticals & Syringes
Kenby Pharmacy,"6024 5th Ave,  Brooklyn,  NY 11220",Brooklyn,11220,40.639144,-74.0169,Pharmaceuticals & Syringes
Walgreens/Duane Reade,"773 Lexington Ave,  Manhattan,  NY 10065",Manhattan,10065,40.763135,-73.967,Pharmaceuticals & Syringes
Greater Harlem Nursing Home Company,"30 W 138th St, New York, NY 10037",Manhattan,10037,40.814981,-73.937562,Pharmaceuticals & Syringes
Hundson Pointe at Riverdale Center for Nursing and Rehabilitation,"3220 Henry Hudson Pkwy, Bronx, NY 10463",Bronx,10463,40.884693,-73.913918,Pharmaceuticals & Syringes
Bridging Access to Care,"2261 Church Ave, Brooklyn, NY 11226",Brooklyn,11226,40.6509,-73.956804,Pharmaceuticals & Syringes
New York Ave Pharmacy,"3424 Church Ave,  Brooklyn,  NY 11203",Brooklyn,11203,40.650789,-73.9449,Pharmaceuticals & Syringes
Jack D. Weiler Hospital of the Albert Einstein College of Medicine,"1825 Eastchester Rd, Bronx, NY 10461",Bronx,10461,40.849032,-73.846078,Pharmaceuticals & Syringes
Richmond University Medical Center,"355 Bard Ave, Staten Island, NY, 10310",Staten Island,10310,40.635837,-74.105574,Pharmaceuticals & Syringes
Downtown Pharmacy,"165 William St,  Manhattan,  NY 10038",Manhattan,10038,40.710284,-74.006,Pharmaceuticals & Syringes
St. Lukes Hospital,"1111 Amsterdam Ave, New York, NY 10025",Manhattan,10025,40.805527,-73.961233,Pharmaceuticals & Syringes
Woodhull Medical & Mental Health Center,"760 Broadway, Brooklyn, NY 11206",Brooklyn,11206,40.699605,-73.942368,Pharmaceuticals & Syringes
Heritage Rehabilitation Center,"5606 15 Ave, Brooklyn, NY 11219",Brooklyn,11219,40.628452,-73.992226,Pharmaceuticals & Syringes
New York Presbyterian Hospital - Allen Hospital,"5141 Broadway, New York, NY, 10034",Manhattan,10034,40.873339,-73.913012,Pharmaceuticals & Syringes
Union Plaza Care Center,"33-23 Union St. Flushing, NY 11354",Queens,11354,40.767323,-73.826924,Pharmaceuticals & Syringes
Queens Health Pharmacy,"76-11A Broadway,  Queens,  NY 11373",Queens,11373,40.74569,-73.8886,Pharmaceuticals & Syringes
Good Health Family Pharmacy,"449 West 125th Street,  Manhattan,  NY 10027",Manhattan,10027,40.812844,-73.9554,Pharmaceuticals & Syringes
Carmel Richmond Healthcare and Rehabilitation Center,"88 Old Town Rd, Staten Island, NY, 10304",Staten Island,10304,40.59557,-74.090637,Pharmaceuticals & Syringes
East Haven Nursing & Rehabilitation Center,"2323 Eastchester Rd, Bronx, NY 10469",Bronx,10469,40.860285,-73.843622,Pharmaceuticals & Syringes
Queen of Peace Residence,"110 221st St, Queens Village, NY 11429",Queens,11429,40.714692,-73.731994,Pharmaceuticals & Syringes
RND Pharmacy Inc DBA Casa de Vida Pharmacy,"52 W Burnside Ave,  Bronx,  NY 10453",Bronx,10453,40.853914,-73.9098,Pharmaceuticals & Syringes
Ritecare Inc.,"223 W 231st St Suite A,  Bronx,  NY 10463",Bronx,10463,40.879532,-73.9053,Pharmaceuticals & Syringes
EPX Pharmaceutical DBA QwikMeds,"159 Ralph Avenue,  Brooklyn,  NY 11233",Brooklyn,11233,40.684394,-73.9228,Pharmaceuticals & Syringes
"Camia Drugs, Inc. Franconia Pharmacy","45-02 162nd Street,  Queens,  NY 11358",Queens,11358,40.75631,-73.8048,Pharmaceuticals & Syringes
NYPD 61st Precinct,"2575 Coney Island Ave,  Brooklyn,  NY 11223",Brooklyn,11223,40.594121,-73.9604,Pharmaceuticals & Syringes
University Hospital of Brooklyn,"450 Clarkson Ave, Brooklyn, NY 11203",Brooklyn,11203,40.698565,-73.962017,Pharmaceuticals & Syringes
Gay Men Health Crisis-The David Geffen Center for HIV Testing and Health Education,"224 W 29th St, New York, NY 10001",Manhattan,10001,40.74815,-73.994203,Pharmaceuticals & Syringes
Thompkinsville Pharmacy,"45 Victory Blvd, Staten Island, NY 10301",Staten Island,10301,40.6388187,-74.077255,Pharmaceuticals & Syringes
BOOM!Health Harm Reduction Center,"226 E 144 St, Bronx, NY, 10451",Bronx,10451,40.815716,-73.92547,Pharmaceuticals & Syringes
New York Community Hospital of Brooklyn,"2525 Kings Hwy Brooklyn, NY 11229",Brooklyn,11229,40.613903,-73.948528,Pharmaceuticals & Syringes
New Carlton Rehab & Nursing Center,"405 Carlton Ave, Brooklyn, NY 11238",Brooklyn,11238,40.685504,-73.971173,Pharmaceuticals & Syringes
Triangle Pharmacy,"119-1 Jamaica Ave, Richmond Hill, NY 11418",Queens,11418,40.700123,-73.830846,Pharmaceuticals & Syringes
Arthur Ave Pharmacy,"2343 Arthur Ave,  Bronx,  NY 10458",Bronx,10458,40.854538,-73.8888,Pharmaceuticals & Syringes
Duane Reade,"2522 Broadway,  Manhattan,  NY 10025",Manhattan,10025,40.793301,-73.9721,Pharmaceuticals & Syringes
New Surfside Nursing Home,"22-41 New Haven Ave, Far Rockaway, NY 11691",Queens,11691,40.60111,-73.757067,Pharmaceuticals & Syringes
Har Har Pharmacy Corp DBA Big Apple Pharmacy,"37-71 103rd Street,  Queens,  NY 11368",Queens,11368,40.751473,-73.8632,Pharmaceuticals & Syringes
Montefiore Hospital,"111 E 210 St, Bronx, NY 10461",Bronx,10461,40.880092,-73.879833,Pharmaceuticals & Syringes
Port Richmond Wellness Center,"166 Port Richmond Ave, Staten Island, NY, 10302",Staten Island,10302,40.63718,-74.134338,Pharmaceuticals & Syringes
Russo's Pharmacy,"19-09 Cornaga Ave,  Queens,  NY 11691",Queens,11691,40.602018,-73.7522,Pharmaceuticals & Syringes
New York Hospital Medical Center of Queens,"56-100 Main St Flushing, NY 11355",Queens,11355,40.715838,-73.816446,Pharmaceuticals & Syringes
King David Center for Nursing & Rehabilitation,"2266 Cropsey Ave, Brooklyn, NY 11214",Brooklyn,11214,40.596568,-73.998317,Pharmaceuticals & Syringes
Memorial Hospital for Cancer and Allied Diseases,"444 E 68 St, New York, NY 10065",Manhattan,10065,40.76864,-73.966539,Pharmaceuticals & Syringes
Resort Nursing Home,"430 Beach 68 St Averne, NY 11692",Queens,11692,40.59359,-73.796761,Pharmaceuticals & Syringes
Kings Terrace Health Care Center,"2678 Kingsbridge Ter, Bronx, NY 10463",Bronx,10463,40.870425,-73.903871,Pharmaceuticals & Syringes
CFH Brownsville Medical Clinic,"357 Saratoga Ave, Brooklyn, NY 11233",Brooklyn,11233,40.67363,-73.916601,Pharmaceuticals & Syringes
Grand Manor Nursing & Rehabilitation Center,"700 White Plains Rd, Bronx, NY 10473",Bronx,10473,40.820343,-73.857452,Pharmaceuticals & Syringes
Horizon Health Care,"64-11 Beach Channel Dr, Averne, NY 11692",Queens,11692,40.592797,-73.793833,Pharmaceuticals & Syringes
Avonora Pharmacy,"149-01 Union Turnpike,  Queens,  NY 11367",Queens,11367,40.718927,-73.8136,Pharmaceuticals & Syringes
Chapin Home For the Aging,"16501 Chapin Pkwy Jamaica, NY 11432",Queens,11432,40.714745,-73.801208,Pharmaceuticals & Syringes
Triumph Pharmacy,"111-12 Sutphin Boulevard,  Queens,  NY 11435",Queens,11435,40.688079,-73.7957,Pharmaceuticals & Syringes
Stuyvesant Cove Park,"24-20 FDR Drive, Service Road East, New York, NY 10010",Manhattan,10010,40.735295,-73.973877,Pharmaceuticals & Syringes
CVS Pharmacy,"150 East 42nd Street,  Manhattan,  NY 10017",Manhattan,10017,40.750758,-73.9755,Pharmaceuticals & Syringes
CVS Pharmacy,"1933 Victory Boulevard,  Staten Island,  NY 10314",Staten Island,10314,40.612915,-74.1283,Pharmaceuticals & Syringes
NYPD 63rd Precinct,"1844 Brooklyn Ave,  Brooklyn,  NY 11210",Brooklyn,11210,40.62797,-73.9416,Pharmaceuticals & Syringes
Established Drugs,"3001 Clarendon Rd,  Brooklyn,  NY 11226",Brooklyn,11226,40.643514,-73.9486,Pharmaceuticals & Syringes
Norwegian Christian Home and Health Center,"1250 67th St, Brooklyn, NY 11219",Brooklyn,11219,40.624807,-74.003982,Pharmaceuticals & Syringes
Washington Heights Corner Project,"566 W 181 St, New York, NY 10033",Manhattan,10033,40.8491,-73.933536,Pharmaceuticals & Syringes
Hebrew Home for the Aged at Riverdale,"5901 Palisade Ave, Bronx, NY 10471",Bronx,10471,40.908687,-73.913345,Pharmaceuticals & Syringes
Interfaith Medical Center,"1545 Atlantic Ave, Brooklyn, NY 11213",Brooklyn,11213,40.67855,-73.93742,Pharmaceuticals & Syringes
Duane Reade,"949 Third Ave,  Manhattan,  NY 10022",Manhattan,10022,40.759718,-73.9674,Pharmaceuticals & Syringes
St. Barnabas Rehabilitation & Contributing Care Center,"4487 3rd Ave, Bronx, NY 10457",Bronx,10457,40.853718,-73.892105,Pharmaceuticals & Syringes
Caton Park Nursing Home,"1312 Caton Ave Brooklyn, NY 11226",Brooklyn,11226,40.649529,-73.9673,Pharmaceuticals & Syringes
Bellos Pharmacy,"179th St. Nicholas Ave,  Brooklyn,  NY 11237",Brooklyn,11237,40.704187,-73.91598,Pharmaceuticals & Syringes
St. Ann's Corner of Harm Reduction,"886 Westchester Ave, Bronx, NY10459",Bronx,10459,40.820477,-73.899391,Pharmaceuticals & Syringes
Ida Israel Community Health Center,"2925 W 19th St, Brooklyn, NY 11224",Brooklyn,11224,40.578615,-73.98593602,Pharmaceuticals & Syringes
AVK Rx Pharmacy,"3904 Church Ave,  Brooklyn,  NY 11219",Brooklyn,11219,40.650995,-73.9407,Pharmaceuticals & Syringes
Metropolitan Hospital Center,"1901 1 Ave, New York, NY 10029",Manhattan,10029,40.785143,-73.945199,Pharmaceuticals & Syringes
BMK Brooklyn Men Konnect,"147 Utica Ave, Brooklyn, NY 11213",Brooklyn,11213,40.673776,-73.930383,Pharmaceuticals & Syringes
Coney Island Hospital,"2601 Ocean Pkwy, Brooklyn, NY 11235",Brooklyn,11235,40.585211,-73.965307,Pharmaceuticals & Syringes
Staten Island Care Center,"200 Lafayette Ave, Staten Island, NY, 10301",Staten Island,10301,40.640041,-74.094955,Pharmaceuticals & Syringes
Harlem United - El Faro,"179 E 116 St, New York, NY 10035",Manhattan,10035,40.798393,-73.940326,Pharmaceuticals & Syringes
St. Barnabas Hospital,"4422 3rd Ave, Bronx, NY 10457",Bronx,10457,40.853236,-73.891122,Pharmaceuticals & Syringes
Preferred Pharmacy,"1771 Broadway,  Brooklyn,  NY 11207",Brooklyn,11207,40.682804,-73.9096,Pharmaceuticals & Syringes
Oak Park Pharmacy,"205 Prospect Park West,  Brooklyn,  NY 11215",Brooklyn,11215,40.660506,-73.9799,Pharmaceuticals & Syringes
Regeis Care Center,"3200 Baychester Ave, Bronx, NY 10475",Bronx,10475,40.877247,-73.835442,Pharmaceuticals & Syringes
New York Center for Rehabilitation and Nursing,"26-13 21 St, Astoria, NY 11102",Queens,11102,40.77281,-73.925115,Pharmaceuticals & Syringes
"Murawski Pharmacy, Inc","94-98 Nassau Ave,  Brooklyn,  NY 11222",Brooklyn,11222,40.723901,-73.95,Pharmaceuticals & Syringes
NYPD 121st Precinct,"970 Richmond Ave,  Staten Island,  NY 10314",Staten Island,10314,40.623587,-74.1514,Pharmaceuticals & Syringes
CVS Pharmacy,"241 West 57th Street,  Manhattan,  NY 10019",Manhattan,10019,40.766879,-73.9822,Pharmaceuticals & Syringes
Harlem Hospital Center,"506 Lenox Ave, New York, NY 10037",Manhattan,10037,40.814535,-73.9399,Pharmaceuticals & Syringes
New York Westchester Square Medical Center,"2475 St. Raymonds Ave, Bronx, NY 10461",Bronx,10461,40.84071,-73.848482,Pharmaceuticals & Syringes
St. Lukes - Roosevelt Hospital,"1000 10th Ave, New York, NY 10019",Manhattan,10019,40.769762,-73.986946,Pharmaceuticals & Syringes
Lincoln Medical & Mental Health Center,"234 E 149 St, Bronx, NY 10451",Bronx,10451,40.816978,-73.924294,Pharmaceuticals & Syringes
Shalom's Pharmacy,"1490 Coney Island Ave,  Brooklyn,  NY 11230",Brooklyn,11230,40.622196,-73.9641,Pharmaceuticals & Syringes
NYU Langone Health - Cobble Hill,"70 Atlantic Ave, Brooklyn, NY 11201",Brooklyn,11201,40.69093204,-73.99733235,Pharmaceuticals & Syringes
Bronx Lebanon Hospital Center - Concourse Division,"1650 Grand Concourse, Bronx, NY 10457",Bronx,10457,40.843542,-73.91101,Pharmaceuticals & Syringes
Danny's Pharmacy,"1632 Bruckner Boulevard,  Bronx,  NY 10473",Bronx,10473,40.823035,-73.8741,Pharmaceuticals & Syringes
Franhill Pharmacy,"204-19 Hillside Ave,  Queens,  NY 11423",Queens,11423,40.72085,-73.761,Pharmaceuticals & Syringes
Richmond Center for Rehabilitation and Specialty Healthcare,"91 Tompkins Ave, Staten Island, NY 10304",Staten Island,10304,40.622701,-74.077986,Pharmaceuticals & Syringes
Long Island Jewish Medical Center,"270 76th Ave, New Hyde Park, NY 11004",Queens,11004,40.754675,-73.705367,Pharmaceuticals & Syringes
Haitian Centers Council,"123 Linden Blvd, Brooklyn, NY 11226",Brooklyn,11226,40.652734,-73.954326,Pharmaceuticals & Syringes
Verrazano Nursing Home,"100 Castleton Ave, Staten Island, NY, 10301",Staten Island,10301,40.634117,-74.087463,Pharmaceuticals & Syringes
Coney Island Hospital - Homecrest Health Center,"1601 Avenue S Brooklyn, NY 11229",Brooklyn,11229,40.603871,-73.955902,Pharmaceuticals & Syringes
Elmhurst Care Center,"100 23rd Ave East Elmhurst, NY 11369",Queens,11369,40.768606,-73.872156,Pharmaceuticals & Syringes
MC Drugs LLC,"13670 Roosevelt Ave,  Queens,  NY 11354",Queens,11354,40.759873,-73.8275,Pharmaceuticals & Syringes
All Health Pharmacy Corp.,"118 Mott Street,  Manhattan,  NY 10013",Manhattan,10013,40.718,-73.9969,Pharmaceuticals & Syringes
CFH Living Room Medical Clinic,"800 Barretto Street, Bronx, NY 10474",Bronx,10474,40.81682,-73.889819,Pharmaceuticals & Syringes
Walgreens,"8420 Broadway,  Queens,  NY 11373",Queens,11373,40.739438,-73.8785,Pharmaceuticals & Syringes
North Central Bronx Hospital,"3424 Kossuth Ave, Bronx, NY 10467",Bronx,10467,40.880432,-73.881204,Pharmaceuticals & Syringes
VillageCare Rehabilitation and Nursing Center,"214 W Houston St, New York, NY 10014",Manhattan,10014,40.728783,-74.004475,Pharmaceuticals & Syringes
Walgreens,"127-04 Guy R Brewer Blvd,  Queens,  NY 11434",Queens,11434,40.677904,-73.7796,Pharmaceuticals & Syringes
Ocean A & R Pharmacy Inc.,"2806 Ocean Ave,  Brooklyn,  NY 11229",Brooklyn,11229,40.592959,-73.9505,Pharmaceuticals & Syringes
Riverdale Nursing Home,"641 W 230 St, Bronx, NY 10463",Bronx,10463,40.882319,-73.915021,Pharmaceuticals & Syringes
Windsor Park Nursing Home,"212-40 Hillside Ave, Queens Village, NY 11427",Queens,11427,40.725361,-73.752668,Pharmaceuticals & Syringes
NYPD 68th Precinct,"333 65th Street,  Brooklyn,  NY 11220",Brooklyn,11220,40.638995,-74.0225,Pharmaceuticals & Syringes
Prohealth Pharmacy,"385 Second Ave,  Manhattan,  NY 10010",Manhattan,10010,40.737703,-73.9819,Pharmaceuticals & Syringes
NYPD 122nd Precinct,"2320 Hylan Boulevard,  Staten Island,  NY 10306",Staten Island,10306,40.573803,-74.1055,Pharmaceuticals & Syringes
Highland Care Center,"91-31 175th St Jamaica, NY 11432",Queens,11432,40.708512,-73.785573,Pharmaceuticals & Syringes
Legend Drugs 1 LLC,"159 E Gun Hill Road,  Bronx,  NY 10467",Bronx,10467,40.881263,-73.8781,Pharmaceuticals & Syringes
Brooklyn Hospital Center - Downtown Campus,"121 Dekalb Ave, Brooklyn, NY 11201",Brooklyn,11201,40.690692,-73.977967,Pharmaceuticals & Syringes
CVS Pharmacy,"100-02 Queens Blvd,  Queens,  NY 11375",Queens,11375,40.726896,-73.85357,Pharmaceuticals & Syringes
Woodcrest Rehabilitation & Residential Health Center,"11909 26th Ave, Flushing, NY 11354",Queens,11354,40.774895,-73.84861,Pharmaceuticals & Syringes
Jacobi Medical Center,"1400 Pelham Pkwy S, Bronx, NY 10461",Bronx,10461,40.85623,-73.847437,Pharmaceuticals & Syringes
Rite Med Pharmacy,"311 Saint Nicholas Ave,  Queens,  NY 11385",Queens,11385,40.701384,-73.9107,Pharmaceuticals & Syringes
Lenox Terrace Pharmacy Inc,"20 West 135th Street,  Manhattan,  NY 10037",Manhattan,10037,40.812987,-73.9389,Pharmaceuticals & Syringes
Rutland Nursing Home Co,"585 Schenectady Ave, Brooklyn, NY 11203",Brooklyn,11203,40.659536,-73.933794,Pharmaceuticals & Syringes
Staten Island University Hospital-North,"475 Seaview Ave, Staten Island, NY, 10305",Staten Island,10305,40.58488,-74.08611,Pharmaceuticals & Syringes
Jamaica Hospital Medical Center,"8900 Van Wyck Expy, Richmond Hill, NY 11418",Queens,11418,40.700256,-73.816216,Pharmaceuticals & Syringes
CVS Pharmacy,"1916 Williamsbridge Rd,  Bronx,  NY 10461",Bronx,10461,40.852765,-73.8529,Pharmaceuticals & Syringes
Park Nursing Home,"128 Beach 115 St, Rockaway Park, NY 11694",Queens,11694,40.578462,-73.835218,Pharmaceuticals & Syringes
NYPD 60th Precinct,"2591 W 8th Street,  Brooklyn,  NY 11224",Brooklyn,11224,40.576215,-73.9765,Pharmaceuticals & Syringes
CVS Pharmacy,"89-11 Northern Blvd,  Queens,  NY 11372",Queens,11372,40.756686,-73.8785,Pharmaceuticals & Syringes
CVS Pharmacy,"4901 Kings Highway,  Brooklyn,  NY 11234",Brooklyn,11234,40.633859,-73.9292,Pharmaceuticals & Syringes
Linden Center for Nursing and Rehabilitation,"2237 Linden Blvd, Brooklyn, NY 11207",Brooklyn,11207,40.66353,-73.880877,Pharmaceuticals & Syringes
Walgreens,"114 Beverley Rd.,  Brooklyn,  NY 11218",Brooklyn,11218,40.642492,-73.9788,Pharmaceuticals & Syringes
Frank's Pharmacy,"77-01 37th Ave,  Queens,  NY 11372",Queens,11372,40.749543,-73.8885,Pharmaceuticals & Syringes
DTH Pharmacy/ Downtown Pharmacy,"165 William St, New York, NY 10038",Manhattan,10038,40.710236,-74.00588,Pharmaceuticals & Syringes
Prohealth Pharmacy,"385 2nd Ave,  Manhattan,  NY 10010",Manhattan,10010,40.73836477,-73.98135817,Pharmaceuticals & Syringes
SVA Pharmacy Corp DBA Triangle Pharmacy,"119-01 Jamaica Ave,  Queens,  NY 11418",Queens,11418,40.700221,-73.8308,Pharmaceuticals & Syringes
CFH Nelson Medical Clinic,"1605-11 Nelson Avenue, Bronx, NY 10453",Bronx,10453,40.846311,-73.919646,Pharmaceuticals & Syringes
Brooklyn Center for Rehabilitation and Residential Care,"1455 Coney Isalnd Ave, Brooklyn, NY 11230",Brooklyn,11230,40.621669,-73.964191,Pharmaceuticals & Syringes
Methodist Home for Nursing and Rehabilitation,"4499 Manhattan College Pkwy Bronx, NY 10463",Bronx,10463,40.890172,-73.903132,Pharmaceuticals & Syringes
Turning Point 3rd Ave,"968 3 Ave, Brooklyn, NY 11232",Brooklyn,11232,40.655276,-74.007291,Pharmaceuticals & Syringes
I&S Pharmacy,"1994 Third Ave,  Manhattan,  NY 10029",Manhattan,10029,40.793968,-73.9433,Pharmaceuticals & Syringes
Best Rx Pharmacy,"325 New Dorp Lane,  Staten Island,  NY 10306",Staten Island,10306,40.57218027,-74.11159827,Pharmaceuticals & Syringes
Park Terrace Care Center,"59-20 Van Doren St Corona, NY 11368",Queens,11368,40.738893,-73.849736,Pharmaceuticals & Syringes
Bishop Charles Waldo Maclean Episcopal Nursing Home,"1711 Brookhaven Ave, New York, NY 11691",Queens,11691,40.598537,-73.751419,Pharmaceuticals & Syringes
Coney Island Hospital - Staten Island,"2040 Forest Ave, Staten Island, NY, 10303",Staten Island,10303,40.625435,-74.15627,Pharmaceuticals & Syringes
Cobble Hill Health Center,"380 Henry St, Brooklyn, NY 11201",Brooklyn,11201,40.688453,-73.997654,Pharmaceuticals & Syringes
Acacia Network: Casa Promesa,"308 E 175 ST, Bronx, NY 10457",Bronx,10457,40.84634,-73.904076,Pharmaceuticals & Syringes
Eastchester Rehabilitation and Healthcare Center,"2700 Eastchester Rd, Bronx, NY 10469",Bronx,10469,40.865639,-73.843015,Pharmaceuticals & Syringes
Sam Pharmacy,"210 Parkside Ave,  Brooklyn,  NY 11226",Brooklyn,11226,40.655042,-73.9607,Pharmaceuticals & Syringes
Terence Cardinal Cooke Health Care Center,"1249 5th Ave, New York, NY 10029",Manhattan,10029,40.793766,-73.951001,Pharmaceuticals & Syringes
St. Jude Specialty Pharmacy,"121 St. Nicholas Ave,  Brooklyn,  NY 11237",Brooklyn,11237,40.705531,-73.9178,Pharmaceuticals & Syringes
Kingbrook Jewish Medical Center,"585 Schenectady Ave Brooklyn, NY 11203",Brooklyn,11203,40.663313,-73.987576,Pharmaceuticals & Syringes
Flushing Hospital Medical Center,"4500 Parsons Blvd, Flushing, NY 11355",Queens,11355,40.755419,-73.816804,Pharmaceuticals & Syringes
Kingsbridge Pharmacy Corp.,"145 W Kingsbridge Road,  Bronx,  NY 10468",Bronx,10468,40.86946,-73.9031,Pharmaceuticals & Syringes
Duane Reade,"51 W. 51st Street,  Manhattan,  NY 10019",Manhattan,10019,40.760473,-73.9789,Pharmaceuticals & Syringes
Scarpa Pharmacy,"6216 11th Ave,  Brooklyn,  NY 11219",Brooklyn,11219,40.630128,-74.0048,Pharmaceuticals & Syringes
Hope Center for HIV & Nursing Care,"1401 University Ave, Bronx, NY 10452",Bronx,10452,40.842881,-73.925655,Pharmaceuticals & Syringes
Pelham Parkway Nursing Home,"2401 Laconia Ave, Bronx, NY 10469",Bronx,10469,40.861443,-73.856397,Pharmaceuticals & Syringes
Eger Health Care Center of Staten Island,"140 Meisner Ave, Staten Island, NY, 10306",Staten Island,10306,40.579861,-74.130173,Pharmaceuticals & Syringes
Shoreview Nursing Home,"2865 Brighton 3rd St, Brooklyn, NY 11235",Brooklyn,11235,40.581376,-73.965596,Pharmaceuticals & Syringes
Miller's Pharmacy,"173 Broad St, Staten Island, NY 10304",Staten Island,10304,40.624515,-74.080673,Pharmaceuticals & Syringes
Simfarose Pharmacy,"1535 Stillwell Ave,  Bronx,  NY 10461",Bronx,10461,40.8540051,-73.84274341,Pharmaceuticals & Syringes
Coler-Goldwater Specialty Hospital and Nursing Facility,"900 Main St, New York, NY 10044",Manhattan,10044,40.770299,-73.942274,Pharmaceuticals & Syringes
Rockaway Care Center,"353 Beach 48 St Far Rockaway, NY 11691",Queens,11691,40.59486,-73.779214,Pharmaceuticals & Syringes
Tri-Road Pharmacy,"791 Westchester Ave,  Bronx,  NY 10455",Bronx,10455,40.818856,-73.9038,Pharmaceuticals & Syringes
Fort Washington Park Pedestrian Ramp,"Haven Ave & W 177th St, New York, NY 10033",Manhattan,10033,40.848316,-73.942043,Pharmaceuticals & Syringes
Castle Hill Community Pharmacy,"706 Castle Hill Ave,  Bronx,  NY 10473",Bronx,10473,40.821409,-73.8482,Pharmaceuticals & Syringes
Lutheran Medical center,"150 E 55 St, Brooklyn, NY 11203",Brooklyn,11203,40.654497,-73.926118,Pharmaceuticals & Syringes
NYU Hospital for Joint Diseases,"530 1st Ave New York, NY, 10016",Manhattan,10016,40.741465,-73.974503,Pharmaceuticals & Syringes
Rebekah Rehab and Extended Care Center,"1070 Havemeyer Ave, Bronx, NY 10462",Bronx,10462,40.830021,-73.846626,Pharmaceuticals & Syringes
Sheepshead Bay Primary Care Center,"3121 Ocean Ave, Brooklyn, NY 11235",Brooklyn,11235,40.585278,-73.948361,Pharmaceuticals & Syringes
Y&Z Pharmacy DBA M&M Pharmacy,"1901 Avenue M,  Brooklyn,  NY 11230",Brooklyn,11230,40.618688,-73.9561,Pharmaceuticals & Syringes
Hopkins Center for Rehabilitation and Healthcare,"155 Dean St Brooklyn, NY 11217",Brooklyn,11217,40.686672,-73.987152,Pharmaceuticals & Syringes
University Nursing Home,"2505 Grand Ave Bronx, NY 10468",Bronx,10468,40.86491,-73.902016,Pharmaceuticals & Syringes
Life Pharmacy,"471 Malcolm X Blvd,  Manhattan,  NY 10030",Manhattan,10030,40.81339393,-73.94187892,Pharmaceuticals & Syringes
EverYoung Pharmacy,"87-08 Justice Ave,  Queens,  NY 11373",Queens,11373,40.73719,-73.8764,Pharmaceuticals & Syringes
NYS Veterans Home in NYC,"178-50 Linden Blvd, Jamica, NY 11434",Queens,11434,40.691769,-73.769112,Pharmaceuticals & Syringes
New Glen Oaks Nursing Home,"260-1 79th Ave Glen Oaks, NY 11004",Queens,11004,40.746884,-73.711413,Pharmaceuticals & Syringes
St. George Pharmacy,"99 Stuyvesant Place,  Staten Island,  NY 10301",Staten Island,10301,40.643821,-74.0773,Pharmaceuticals & Syringes
Crescent Chemists,"24-12 34th Ave,  Queens,  NY 11106",Queens,11106,40.761236,-73.9312,Pharmaceuticals & Syringes
Queens General Center Hospital,"82-68 164th Pl Jamaica, NY 11432",Queens,11432,40.717407,-73.802345,Pharmaceuticals & Syringes
J&R Pharmacy,"2302 Mermaid Ave,  Brooklyn,  NY 11224",Brooklyn,11224,40.575792,-73.9902,Pharmaceuticals & Syringes
Fieldston Lodge Care Cetner,"666 Kappcock St, Bronx, NY 10463",Bronx,10463,40.880379,-73.918999,Pharmaceuticals & Syringes
Tabler RX pharmacy,"122 Bay Ridge Ave,  Brooklyn,  NY 11220",Brooklyn,11220,40.637195,-74.0315,Pharmaceuticals & Syringes
St. Marys Center Inc ADHC,"512 W 126th St New York, NY 10027",Manhattan,10027,40.814479,-73.956165,Pharmaceuticals & Syringes
CVS Pharmacy,"1396 Second Ave,  Manhattan,  NY 10021",Manhattan,10021,40.769044,-73.9578,Pharmaceuticals & Syringes
NY Congregational Nursing Center,"135 Linden Blvd Brooklyn, NY 1226",Brooklyn,1226,40.652994,-73.954223,Pharmaceuticals & Syringes
Silver Lake Specialized Rehabilitation Care Center,"275 Castleton Ave, Staten Island, NY, 10301",Staten Island,10301,40.633892,-74.091911,Pharmaceuticals & Syringes
Montefiore Medical Center - North Division,"600 E 233 St, Bronx, NY 10466",Bronx,10466,40.893751,-73.860958,Pharmaceuticals & Syringes
Elmhurst Hospital Center,"79-1 Broadway Elmhurst, NY 11373",Queens,11373,40.745236,-73.886034,Pharmaceuticals & Syringes
ESCO Drug Co Inc.,"687 9th Avenue,  Manhattan,  NY 10036",Manhattan,10036,40.761934,-73.9905,Pharmaceuticals & Syringes
The Chateau at Brooklyn Rehabilitation and Nursing Center,"3457 Nostrand Ave Brooklyn, NY 11229",Brooklyn,11229,40.597475,-73.940456,Pharmaceuticals & Syringes
The Phoenix Rehabilitation & Nursing Center,"140 St. Edwards St, Brooklyn, NY 11201",Brooklyn,11201,40.692337,-73.977905,Pharmaceuticals & Syringes
Henry J. Carter Skilled Nursing Facility,"1752 Park Ave, New York, NY 10035",Manhattan,10035,40.803,-73.94112,Pharmaceuticals & Syringes
New York Eye and Ear Infirmary of Montefiore,"310 E 14 St, New York, NY 10003",Manhattan,10003,40.732026,-73.984643,Pharmaceuticals & Syringes
Throgs Neck Extended Care Facility,"707 Throgs Neck Expy, Bronx, NY 10465",Bronx,10465,40.822682,-73.816831,Pharmaceuticals & Syringes
NYPD 71st Precinct,"421 Empire Boulevard,  Brooklyn,  NY 11225",Brooklyn,11225,40.664517,-73.9477,Pharmaceuticals & Syringes
Mount Sinai Hospital of Queens,"25-10 30th Rd, Long Island City, NY 11102",Queens,11102,40.76767,-73.925142,Pharmaceuticals & Syringes
Split Rock Rehab and HCC,"3525 Baychester Ave, Bronx, NY 10466",Bronx,10466,40.881912,-73.839577,Pharmaceuticals & Syringes
Hill Pharmacy,"53-82 65th Place,  Queens,  NY 11378",Queens,11378,40.729002,-73.9006,Pharmaceuticals & Syringes
Crossbay Chemists Corp,"157-02 Cross Bay Blvd,  Queens,  NY 11414",Queens,11414,40.662182,-73.8411,Pharmaceuticals & Syringes
Dongan Hills Pharmacy,"1560 Richmond Rd,  Staten Island,  NY 10304",Staten Island,10304,40.591473,-74.1006,Pharmaceuticals & Syringes
CVS Pharmacy,"253 First Ave,  Manhattan,  NY 10003",Manhattan,10003,40.731977,-73.9825,Pharmaceuticals & Syringes
CFH Jackson Medical Clinic,"691 East 138th St, Bronx, NY 10454",Bronx,10454,40.805687,-73.913155,Pharmaceuticals & Syringes
Harpell Chemists,"12-65 150th St,  Queens,  NY 11357",Queens,11357,40.789006,-73.8137,Pharmaceuticals & Syringes
Walgreens,"1281 Fulton St,  Brooklyn,  NY 11216",Brooklyn,11216,40.680729,-73.9501,Pharmaceuticals & Syringes
New York Methodist,"506 6 St Brooklyn, NY 11215",Brooklyn,11215,40.667942,-73.979259,Pharmaceuticals & Syringes
Careway Pharmacy,"1174 Flatbush Ave,  Brooklyn,  NY 11226",Brooklyn,11226,40.641437,-73.957,Pharmaceuticals & Syringes
Hill Rx Corp DBA New Victory Pharmacy,"9216 4th Ave,  Brooklyn,  NY 11209",Brooklyn,11209,40.618077,-74.0306,Pharmaceuticals & Syringes
Kingsbridge Heights Rehabilitation and Care Center,"3400 Cannon Pl Bronx, NY 10463",Bronx,10463,40.880434,-73.89822,Pharmaceuticals & Syringes
Hamilton Park Nursing and Rahabilitation,"691 92nd St, Brooklyn, NY 11228",Brooklyn,11228,40.615457,-74.023339,Pharmaceuticals & Syringes
Turning Point Red Hook,"713 Henry St Brooklyn, NY 11231",Brooklyn,11231,40.676558,-74.002771,Pharmaceuticals & Syringes
Incarnation Childrens Center,"142 Audubon Ave, New York, NY 10032",Manhattan,10032,40.84335,-73.936641,Pharmaceuticals & Syringes
Bronx Lebanon Special Care Center,"1265 Fulton Ave, Bronx, NY 10456",Bronx,10456,40.831638,-73.904175,Pharmaceuticals & Syringes
Project Hospitality - Multi-Service Center,"150 Richmond Ter, Staten Island, NY, 10301",Staten Island,10301,40.645552,-74.078095,Pharmaceuticals & Syringes
Coney Island Hospital - Staten Island,"111 Canal St, Staten Island, NY, 10304",Staten Island,10304,40.626703,-74.077466,Pharmaceuticals & Syringes
The New Jewish Home,"120 W 106 St, New York, NY 10025",Manhattan,10025,40.799723,-73.964476,Pharmaceuticals & Syringes
New York City Pharmacy,"206 First Ave,  Manhattan,  NY 10009",Manhattan,10009,40.73021,-73.9831,Pharmaceuticals & Syringes
BB Rx Pharmacy,"6013 7th Ave Unit B,  Brooklyn,  NY 11220",Brooklyn,11220,40.636262,-74.0119,Pharmaceuticals & Syringes
CVS Pharmacy,"640 Arthur Kill Road,  Staten Island,  NY 10308",Staten Island,10308,40.559795,-74.1629,Pharmaceuticals & Syringes
Avingha Rx DBA Pulse Pharmacy,"7 Bedford Park Blvd East,  Bronx,  NY 10468",Bronx,10468,40.873394,-73.889,Pharmaceuticals & Syringes
Silvercrest Center for Nursing and Rehabilitation,"144-45 87th Ave, Briarwood, NY 11435",Queens,11435,40.7071192,-73.811223,Pharmaceuticals & Syringes
Grandview Pharmacy,"590 Grandview Ave,  Queens,  NY 11385",Queens,11385,40.70833,-73.9058,Pharmaceuticals & Syringes
Life Script Pharmacy,"5456 Myrtle Ave,  Queens,  NY 11385",Queens,11385,40.699571,-73.909,Pharmaceuticals & Syringes
Lower East Side Harm Reduction Center,"35 E Broadway, New York, NY 10002",Manhattan,10002,40.71407727,-73.99647175,Pharmaceuticals & Syringes
Kings Drug & Surgical,"492 Clarkson Ave,  Brooklyn,  NY 11203",Brooklyn,11203,40.655674,-73.943,Pharmaceuticals & Syringes
West Lawrence Care Center,"1410 Seagirt Blvd Far Rockaway, NY 11691",Queens,11691,40.595687,-73.748792,Pharmaceuticals & Syringes
After Hours Project - Central office,"1204 Broadway, Brooklyn, NY 11221",Brooklyn,11221,40.692103,-73.926922,Pharmaceuticals & Syringes
Duane Reade,"155 East 34th Street,  Manhattan,  NY 10017",Manhattan,10017,40.7462,-73.9785,Pharmaceuticals & Syringes
CFH POTS Medical Clinic,"2759 Webster Ave, Bronx, NY 10458",Bronx,10458,40.865744,-73.886561,Pharmaceuticals & Syringes
Queens Nassau Rehabilitation and Nursing Center,"520 Beach 19 St, Far Rockaway, NY 11691",Queens,11691,40.6004,-73.751862,Pharmaceuticals & Syringes
Clove Lakes Healthcare and Rehabilitation Center,"25 Fanning St, Staten Island, NY, 10314",Staten Island,10314,40.608047,-74.12249,Pharmaceuticals & Syringes
Franklin Center for Rehabilitation and Nursing,"142-27 Franklin Ave, Flushing, NY 11355",Queens,11355,40.756957,-73.822733,Pharmaceuticals & Syringes
V&A Pharmacy,"72 Manhattan Ave,  Brooklyn,  NY 11206",Brooklyn,11206,40.704723,-73.9442,Pharmaceuticals & Syringes
Castle Aid Pharmacy,"1370 Castle Hill Ave,  Bronx,  NY 10462",Bronx,10462,40.835423,-73.8517,Pharmaceuticals & Syringes
CFH Peter Jay Sharp Center for Opportunity,"89-111 Porter Ave, Brooklyn, NY 11237",Brooklyn,11237,40.707961,-73.928611,Pharmaceuticals & Syringes
VIP Community Services - Health Services Department,"1910 Arthur Ave Bronx, NY 10457",Bronx,10457,40.845444,-73.893005,Pharmaceuticals & Syringes
Hospital for Speical Surgery- Ambulatory Care,"475 E 72 St, New York, NY 10021",Manhattan,10021,40.767162,-73.954,Pharmaceuticals & Syringes
Turning Point Main Office,"5220 4 Ave, Brooklyn, NY 11220",Brooklyn,11220,40.64506,-74.014349,Pharmaceuticals & Syringes
Staten Island University Hospital-South,"375 Seguine Ave, Staten Island, NY, 10309",Staten Island,10309,40.517319,-74.196378,Pharmaceuticals & Syringes
Morningside House Nursing Home Company,"1000 Pelham Pkwy S, Bronx, NY 10461",Bronx,10461,40.856707,-73.859442,Pharmaceuticals & Syringes
Gold Crest Care Center,"2316 Bruner Ave, Bronx, NY 10469",Bronx,10469,40.859249,-73.833031,Pharmaceuticals & Syringes
Sea-Crest Health Care Center,"3035 W 24 St, Brooklyn, NY, 11224",Brooklyn,11224,40.572441,-73.989961,Pharmaceuticals & Syringes
Specialty Rx Servicing Atrium Center for Rehab and Nursing,"611 East 103rdStreet,  Brooklyn,  NY 11236",Brooklyn,11236,40.649221,-73.8991,Pharmaceuticals & Syringes
Bridge View Nursing Home,"143 20th Ave, Whitestone, NY 11357",Queens,11357,40.780019,-73.798135,Pharmaceuticals & Syringes
Long Island Jewish Forest Hills Hospital,"102-1 66th Rd, Forest Hills, NY, 11375",Queens,11375,40.72897,-73.851753,Pharmaceuticals & Syringes
Uptown Care Pharmacy,"2254 2nd Ave,  Manhattan,  NY 10029",Manhattan,10029,40.796644,-73.9377,Pharmaceuticals & Syringes
"B&B Pharmacy, Inc","79-08 37th Ave,  Queens,  NY 11372",Queens,11372,40.749248,-73.8866,Pharmaceuticals & Syringes
Allure Specialty Pharmacy,"4377 Bronx Blvd,  Bronx,  NY 10466",Bronx,10466,40.899539,-73.8585,Pharmaceuticals & Syringes
"Castle Hill Drugs, Inc","674 Castle Hill Ave,  Bronx,  NY 10473",Bronx,10473,40.820657,-73.848,Pharmaceuticals & Syringes
CFH Willow Medical Clinic,"190 Willow Ave, Bronx, NY 10454",Bronx,10454,40.803102,-73.911883,Pharmaceuticals & Syringes
NYPD 70th Precinct,"154 Lawrence Ave,  Brooklyn,  NY 11230",Brooklyn,11230,40.630359,-73.9737,Pharmaceuticals & Syringes
Sterling Pharmacy,"38-01 Bell Boulevard,  Queens,  NY 11361",Queens,11361,40.766455,-73.7722,Pharmaceuticals & Syringes
Wellness Center Pharmacy,"40-13 Broadway,  Queens,  NY 11102",Queens,11102,40.758953,-73.9184,Pharmaceuticals & Syringes
Cedars Pharmacy,"95-19 57th Avenue,  Queens,  NY 11373",Queens,11373,40.736972,-73.8653,Pharmaceuticals & Syringes
Holliswood Center for Rehabilitation and Healthcare,"195-44 Woodhull Ave, Hollis NY 11423",Queens,11423,40.712274,-73.763898,Pharmaceuticals & Syringes
